STK/Target-Roodeplaat_South_Africa-To-Satellite-SENTINEL-3A_41335 Access20160627.txt

                                                                              27 Jun 2016 19:56:14
Target-Roodeplaat_South_Africa-To-Satellite-SENTINEL-3A_41335:  Access Summary Report


Roodeplaat_South_Africa-To-SENTINEL-3A_41335
--------------------------------------------
                  Access        Start Time (UTCG)           Stop Time (UTCG)        Duration (sec)
                  ------    ------------------------    ------------------------    --------------
                       1    27 Jun 2016 20:34:29.884    27 Jun 2016 20:35:53.542            83.658
                       2    28 Jun 2016 07:45:16.723    28 Jun 2016 07:47:15.714           118.991
                       3    28 Jun 2016 20:08:49.852    28 Jun 2016 20:09:56.060            66.208
                       4     1 Jul 2016 20:30:38.125     1 Jul 2016 20:32:23.378           105.253
                       5     2 Jul 2016 07:41:40.552     2 Jul 2016 07:43:29.779           109.228
                       6     5 Jul 2016 08:04:16.343     5 Jul 2016 08:05:09.898            53.555
                       7     5 Jul 2016 20:26:51.184     5 Jul 2016 20:28:48.190           117.005
                       8     6 Jul 2016 07:38:08.844     6 Jul 2016 07:39:39.575            90.730
                       9     9 Jul 2016 08:00:16.467     9 Jul 2016 08:01:46.802            90.335
                      10     9 Jul 2016 20:23:07.637     9 Jul 2016 20:25:09.402           121.765
                      11    10 Jul 2016 07:34:45.645    10 Jul 2016 07:35:41.062            55.416
                      12    13 Jul 2016 07:56:25.636    13 Jul 2016 07:58:14.841           109.205
                      13    13 Jul 2016 20:19:27.091    13 Jul 2016 20:21:27.414           120.322
                      14    17 Jul 2016 07:52:39.391    17 Jul 2016 07:54:38.466           119.074
                      15    17 Jul 2016 20:15:49.691    17 Jul 2016 20:17:42.085           112.395
                      16    20 Jul 2016 20:38:34.193    20 Jul 2016 20:39:10.943            36.750
                      17    21 Jul 2016 07:48:56.614    21 Jul 2016 07:50:58.802           122.188
                      18    21 Jul 2016 20:12:16.258    21 Jul 2016 20:13:52.597            96.340
                      19    24 Jul 2016 20:34:30.100    24 Jul 2016 20:35:53.198            83.097
                      20    25 Jul 2016 07:45:17.013    25 Jul 2016 07:47:16.135           119.121
                      21    25 Jul 2016 20:08:49.671    25 Jul 2016 20:09:56.078            66.407
                      22    28 Jul 2016 20:30:38.182    28 Jul 2016 20:32:23.081           104.900
                      23    29 Jul 2016 07:41:40.821    29 Jul 2016 07:43:30.236           109.415
                      24     1 Aug 2016 08:04:17.106     1 Aug 2016 08:05:09.876            52.770
                      25     1 Aug 2016 20:26:51.130     1 Aug 2016 20:28:47.908           116.779
                      26     2 Aug 2016 07:38:09.063     2 Aug 2016 07:39:40.073            91.010
                      27     5 Aug 2016 08:00:17.023     5 Aug 2016 08:01:46.957            89.934
                      28     5 Aug 2016 20:23:07.492     5 Aug 2016 20:25:09.134           121.643
                      29     6 Aug 2016 07:34:45.703     6 Aug 2016 07:35:41.681            55.977
                      30     9 Aug 2016 07:56:26.104     9 Aug 2016 07:58:15.029           108.925
                      31     9 Aug 2016 20:19:26.868     9 Aug 2016 20:21:27.169           120.300
                      32    13 Aug 2016 07:52:39.788    13 Aug 2016 07:54:38.649           118.860
                      33    13 Aug 2016 20:15:49.397    13 Aug 2016 20:17:41.880           112.483
                      34    16 Aug 2016 20:38:34.385    16 Aug 2016 20:39:10.236            35.851
                      35    17 Aug 2016 07:48:56.936    17 Aug 2016 07:50:58.966           122.031
                      36    17 Aug 2016 20:12:15.890    17 Aug 2016 20:13:52.459            96.569
                      37    20 Aug 2016 20:34:29.974    20 Aug 2016 20:35:52.820            82.845
                      38    21 Aug 2016 07:45:17.252    21 Aug 2016 07:47:16.269           119.018
                      39    21 Aug 2016 20:08:49.176    21 Aug 2016 20:09:56.097            66.921
                      40    24 Aug 2016 20:30:37.991    24 Aug 2016 20:32:22.807           104.816
                      41    25 Aug 2016 07:41:40.968    25 Aug 2016 07:43:30.339           109.371
                      42    28 Aug 2016 08:04:17.735    28 Aug 2016 08:05:09.432            51.697
                      43    28 Aug 2016 20:26:50.915    28 Aug 2016 20:28:47.722           116.807
                      44    29 Aug 2016 07:38:09.099    29 Aug 2016 07:39:40.155            91.056

Global Statistics
-----------------
Min Duration          34    16 Aug 2016 20:38:34.385    16 Aug 2016 20:39:10.236            35.851
Max Duration          17    21 Jul 2016 07:48:56.614    21 Jul 2016 07:50:58.802           122.188
Mean Duration                                                                               95.387
Total Duration                                                                            4197.022
