STK/Target-Roodeplaat_South_Africa-To-Satellite-SENTINEL-3A_41335 Access.txt

                                                                              22 Jun 2016 14:48:47
Target-Roodeplaat_South_Africa-To-Satellite-SENTINEL-3A_41335:  Access Summary Report


Roodeplaat_South_Africa-To-SENTINEL-3A_41335
--------------------------------------------
                  Access        Start Time (UTCG)           Stop Time (UTCG)        Duration (sec)
                  ------    ------------------------    ------------------------    --------------
                       1     5 Jun 2016 07:41:51.855     5 Jun 2016 07:43:14.768            82.913
                       2     8 Jun 2016 20:27:01.851     8 Jun 2016 20:28:35.067            93.217
                       3     9 Jun 2016 07:38:24.743     9 Jun 2016 07:39:20.992            56.250
                       4    12 Jun 2016 08:00:32.693    12 Jun 2016 08:01:28.536            55.843
                       5    12 Jun 2016 20:23:18.197    12 Jun 2016 20:24:57.296            99.099
                       6    16 Jun 2016 07:56:38.080    16 Jun 2016 07:58:01.071            82.992
                       7    16 Jun 2016 20:19:38.261    16 Jun 2016 20:21:15.539            97.278
                       8    20 Jun 2016 07:52:50.533    20 Jun 2016 07:54:26.074            95.541
                       9    20 Jun 2016 20:16:02.113    20 Jun 2016 20:17:29.351            87.238
                      10    24 Jun 2016 07:49:07.635    24 Jun 2016 07:50:47.014            99.380
                      11    24 Jun 2016 20:12:31.968    24 Jun 2016 20:13:37.107            65.139
                      12    27 Jun 2016 20:34:49.843    27 Jun 2016 20:35:34.065            44.222
                      13    28 Jun 2016 07:45:28.595    28 Jun 2016 07:47:04.170            95.574
                      14     1 Jul 2016 20:30:52.341     1 Jul 2016 20:32:10.053            77.711
                      15     2 Jul 2016 07:41:53.968     2 Jul 2016 07:43:17.120            83.152
                      16     5 Jul 2016 20:27:03.818     5 Jul 2016 20:28:36.855            93.037
                      17     6 Jul 2016 07:38:26.411     6 Jul 2016 07:39:23.193            56.782
                      18     9 Jul 2016 08:00:34.626     9 Jul 2016 08:01:30.145            55.520
                      19     9 Jul 2016 20:23:19.884     9 Jul 2016 20:24:58.867            98.983
                      20    13 Jul 2016 07:56:39.789    13 Jul 2016 07:58:02.616            82.827
                      21    13 Jul 2016 20:19:39.697    13 Jul 2016 20:21:16.926            97.229
                      22    17 Jul 2016 07:52:52.342    17 Jul 2016 07:54:27.867            95.525
                      23    17 Jul 2016 20:16:03.522    17 Jul 2016 20:17:30.778            87.257
                      24    21 Jul 2016 07:49:09.376    21 Jul 2016 07:50:48.821            99.445
                      25    21 Jul 2016 20:12:33.231    21 Jul 2016 20:13:38.554            65.323
                      26    24 Jul 2016 20:34:51.652    24 Jul 2016 20:35:34.869            43.217
                      27    25 Jul 2016 07:45:30.314    25 Jul 2016 07:47:06.036            95.723
                      28    28 Jul 2016 20:30:53.807    28 Jul 2016 20:32:11.083            77.277
                      29    29 Jul 2016 07:41:55.634    29 Jul 2016 07:43:19.048            83.414
                      30     1 Aug 2016 20:27:05.138     1 Aug 2016 20:28:37.932            92.794
                      31     2 Aug 2016 07:38:27.937     2 Aug 2016 07:39:25.239            57.302
                      32     5 Aug 2016 08:00:36.762     5 Aug 2016 08:01:31.570            54.808
                      33     5 Aug 2016 20:23:21.098     5 Aug 2016 20:24:59.972            98.874
                      34     9 Aug 2016 07:56:41.726     9 Aug 2016 07:58:04.174            82.449
                      35     9 Aug 2016 20:19:40.822     9 Aug 2016 20:21:18.067            97.245
                      36    13 Aug 2016 07:52:54.166    13 Aug 2016 07:54:29.448            95.282
                      37    13 Aug 2016 20:16:04.563    13 Aug 2016 20:17:31.980            87.417
                      38    17 Aug 2016 07:49:11.096    17 Aug 2016 07:50:50.393            99.297
                      39    17 Aug 2016 20:12:34.153    17 Aug 2016 20:13:39.876            65.723
                      40    20 Aug 2016 20:34:53.072    20 Aug 2016 20:35:35.699            42.627
                      41    21 Aug 2016 07:45:31.926    21 Aug 2016 07:47:07.589            95.663
                      42    24 Aug 2016 20:30:55.043    24 Aug 2016 20:32:12.148            77.104
                      43    25 Aug 2016 07:41:57.123    25 Aug 2016 07:43:20.584            83.462
                      44    28 Aug 2016 20:27:06.334    28 Aug 2016 20:28:39.115            92.780
                      45    29 Aug 2016 07:38:29.252    29 Aug 2016 07:39:26.805            57.553

Global Statistics
-----------------
Min Duration          40    20 Aug 2016 20:34:53.072    20 Aug 2016 20:35:35.699            42.627
Max Duration          24    21 Jul 2016 07:49:09.376    21 Jul 2016 07:50:48.821            99.445
Mean Duration                                                                               80.611
Total Duration                                                                            3627.485
